{
  "walks": [
    {
      "walkId": 1,
      "photoId": "walk1.jpg",
      "walkName": "Middleton-Top",
      "location": "Wirksworth, Matlock",
      "lat": 53.08269,
      "lng": -1.5736,
      "walkType": ["Hilly"],
      "offLeadArea": true,
      "paths": true,
      "animalsOnRoute": false,
      "toilets": true,
      "waterOnRoute": false,
      "scenic": true,
      "parking": "paid"
    },
    {
      "walkId": 2,
      "photoId": "walk2.jpg",
      "walkName": "Stoney-Wood",
      "location": "Wirksworth, Matlock",
      "lat": 53.08504,
      "lng": -1.50495,
      "walkType": ["Hilly", "Woods"],
      "offLeadArea": true,
      "paths": true,
      "animalsOnRoute": false,
      "toilets": false,
      "waterOnRoute": false,
      "scenic": true,
      "parking": "free"
    },
    {
      "walkId": 3,
      "photoId": "walk3.jpg",
      "walkName": "Crich Tramway Village",
      "location": "Matlock",
      "lat": 53.08631,
      "lng": -1.47884,
      "walkType": ["Hilly", "Flat", "Park"],
      "offLeadArea": false,
      "paths": true,
      "animalsOnRoute": false,
      "toilets": true,
      "waterOnRoute": false,
      "scenic": true,
      "parking": "paid"
    },
    {
      "walkId": 4,
      "photoId": "walk4.jpg",
      "walkName": "Shining Cliff Woods",
      "location": "Alderwasley, Belper",
      "lat": 53.024069,
      "lng": -1.477848,
      "walkType": ["Hilly", "Forest"],
      "offLeadArea": true,
      "paths": true,
      "animalsOnRoute": false,
      "toilets": false,
      "waterOnRoute": false,
      "scenic": true,
      "parking": "free"
    },
    {
      "walkId": 5,
      "photoId": "walk5.jpg",
      "walkName": "Nine Ladies Stanton Moor",
      "location": "Birchover, Matlock",
      "lat": 53.14771,
      "lng": -1.57116,
      "walkType": ["Hilly", "Flat"],
      "offLeadArea": true,
      "paths": true,
      "animalsOnRoute": true,
      "toilets": false,
      "waterOnRoute": false,
      "scenic": true,
      "parking": "free"
    },
    {
      "walkId": 6,
      "photoId": "walk6.jpg",
      "walkName": "Stanton Stroll",
      "location": "Matlock, Stanton in Peak",
      "lat": 53.17484,
      "lng": -1.64002,
      "walkType": ["Hilly", "Forest"],
      "offLeadArea": true,
      "paths": true,
      "animalsOnRoute": true,
      "toilets": true,
      "waterOnRoute": false,
      "scenic": true,
      "parking": "free"
    },
    {
      "walkId": 7,
      "photoId": "walk7.jpg",
      "walkName": "Codnor Castle",
      "location": "Nottingham",
      "lat": 53.04148,
      "lng": -1.37362,
      "walkType": ["Flat", "Woods"],
      "offLeadArea": true,
      "paths": true,
      "animalsOnRoute": true,
      "toilets": false,
      "waterOnRoute": false,
      "scenic": true,
      "parking": "free"
    },
    {
      "walkId": 8,
      "photoId": "walk8.jpg",
      "walkName": "Elvaston Castle",
      "location": "Elvaston, Derby",
      "lat": 52.88613,
      "lng": -1.41162,
      "walkType": ["Flat", "Park"],
      "offLeadArea": true,
      "paths": true,
      "animalsOnRoute": false,
      "toilets": true,
      "waterOnRoute": true,
      "scenic": false,
      "parking": "paid"
    },
    {
      "walkId": 9,
      "photoId": "walk9.jpg",
      "walkName": "Portland Park",
      "location": "Kirkby in Ashfield, Nottingham",
      "lat": 53.10212,
      "lng": -1.26043,
      "walkType": ["Hilly", "Flat", "Forest", "Park"],
      "offLeadArea": true,
      "paths": true,
      "animalsOnRoute": true,
      "toilets": true,
      "waterOnRoute": false,
      "scenic": true,
      "parking": "free"
    },
    {
      "walkId": 10,
      "photoId": "walk10.jpg",
      "walkName": "Ticknall Limeyards and Calke Abbey Loop",
      "location": "Ticknall, Derby",
      "lat": 52.81148,
      "lng": -1.48109,
      "walkType": ["Forest"],
      "offLeadArea": true,
      "paths": true,
      "animalsOnRoute": true,
      "toilets": true,
      "waterOnRoute": true,
      "scenic": true,
      "parking": "free"
    },
    {
      "walkId": 11,
      "photoId": "walk11.jpg",
      "walkName": "Langshaw Estate",
      "location": "Longshaw Estate, Sheffield",
      "lat": 53.17637,
      "lng": -1.38983,
      "walkType": ["Forest", "Flat", "Fields"],
      "offLeadArea": true,
      "paths": true,
      "animalsOnRoute": true,
      "toilets": true,
      "waterOnRoute": true,
      "scenic": true,
      "parking": "paid"
    },
    {
      "walkId": 12,
      "photoId": "walk12.jpg",
      "walkName": "Dale Abbey Loop",
      "location": "Ilkeston",
      "lat": 52.94553,
      "lng": -1.35186,
      "walkType": ["Hilly", "Forest"],
      "offLeadArea": true,
      "paths": true,
      "animalsOnRoute": true,
      "toilets": false,
      "waterOnRoute": false,
      "scenic": true,
      "parking": "free"
    },
    {
      "walkId": 13,
      "photoId": "walk13.jpg",
      "walkName": "Linacre Reservoirs",
      "location": "Chesterfield",
      "lat": 53.24724,
      "lng": -1.47107,
      "walkType": ["Flat", "Forest"],
      "offLeadArea": true,
      "paths": true,
      "animalsOnRoute": true,
      "toilets": true,
      "waterOnRoute": true,
      "scenic": true,
      "parking": "paid"
    },
    {
      "walkId": 14,
      "photoId": "walk14.jpg",
      "walkName": "Hardwick Hall",
      "location": "Chesterfield",
      "lat": 53.16701,
      "lng": -1.3106,
      "walkType": ["Flat", "Park"],
      "offLeadArea": false,
      "paths": true,
      "animalsOnRoute": true,
      "toilets": true,
      "waterOnRoute": false,
      "scenic": true,
      "parking": "paid"
    },
    {
      "walkId": 15,
      "photoId": "walk15.jpg",
      "walkName": "Calke Abbey",
      "location": "Derby",
      "lat": 52.94234,
      "lng": -1.48187,
      "walkType": ["Hilly", "Flat", "Forest", "Park"],
      "offLeadArea": true,
      "paths": true,
      "animalsOnRoute": true,
      "toilets": true,
      "waterOnRoute": true,
      "scenic": true,
      "parking": "free"
    },
    {
      "walkId": 16,
      "photoId": "walk16.jpg",
      "walkName": "Shipley Country Park",
      "location": "Heanor",
      "lat": 53.00469,
      "lng": -1.35643,
      "walkType": ["Park"],
      "offLeadArea": true,
      "paths": true,
      "animalsOnRoute": false,
      "toilets": true,
      "waterOnRoute": true,
      "scenic": true,
      "parking": "paid"
    },
    {
      "walkId": 17,
      "photoId": "walk17.jpg",
      "walkName": "Wollaton Hall",
      "location": "Nottingham",
      "lat": 52.95161,
      "lng": -1.20399,
      "walkType": ["Flat", "Fields", "Woods", "Park"],
      "offLeadArea": true,
      "paths": true,
      "animalsOnRoute": true,
      "toilets": true,
      "waterOnRoute": true,
      "scenic": true,
      "parking": "paid"
    },
    {
      "walkId": 18,
      "photoId": "walk18.jpg",
      "walkName": "Attenborough Nature Reserve",
      "location": "Nottingham",
      "lat": 52.90035,
      "lng": -1.22725,
      "walkType": ["Flat", "Woods"],
      "offLeadArea": true,
      "paths": true,
      "animalsOnRoute": true,
      "toilets": true,
      "waterOnRoute": true,
      "scenic": true,
      "parking": "free"
    },
    {
      "walkId": 19,
      "photoId": "walk19.jpg",
      "walkName": "Rushcliffe Country Park",
      "location": "Nottingham",
      "lat": 52.90683,
      "lng": -1.14254,
      "walkType": ["Flat", "Fields", "Woods", "Park"],
      "offLeadArea": true,
      "paths": true,
      "animalsOnRoute": true,
      "toilets": true,
      "waterOnRoute": true,
      "scenic": true,
      "parking": "free"
    },
    {
      "walkId": 20,
      "photoId": "walk20.jpg",
      "walkName": "Clumber Park",
      "location": "Worksop",
      "lat": 53.26488,
      "lng": -1.05796,
      "walkType": ["Flat", "Fields", "Woods", "Park"],
      "offLeadArea": true,
      "paths": true,
      "animalsOnRoute": true,
      "toilets": true,
      "waterOnRoute": true,
      "scenic": true,
      "parking": "paid"
    },
    {
      "walkId": 21,
      "photoId": "walk21.jpg",
      "walkName": "Sherwood Pines",
      "location": "Mansfield",
      "lat": 53.18218,
      "lng": -1.06451,
      "walkType": ["Forest", "Flat", "Fields"],
      "offLeadArea": true,
      "paths": true,
      "animalsOnRoute": true,
      "toilets": true,
      "waterOnRoute": true,
      "scenic": true,
      "parking": "paid"
    },
    {
      "walkId": 22,
      "photoId": "walk22.jpg",
      "walkName": "Pleasley Pit",
      "location": "Mansfield",
      "lat": 53.17436,
      "lng": -1.24998,
      "walkType": ["Flat", "Fields"],
      "offLeadArea": true,
      "paths": true,
      "animalsOnRoute": true,
      "toilets": false,
      "waterOnRoute": false,
      "scenic": true,
      "parking": "free"
    },
    {
      "walkId": 23,
      "photoId": "walk23.jpg",
      "walkName": "Carr Vale Nature Reserve",
      "location": "Bolsover",
      "lat": 53.23773,
      "lng": -1.29662,
      "walkType": ["Flat", "Fields", "Woods"],
      "offLeadArea": false,
      "paths": true,
      "animalsOnRoute": true,
      "toilets": false,
      "waterOnRoute": true,
      "scenic": true,
      "parking": "free"
    },
    {
      "walkId": 24,
      "photoId": "walk24.jpg",
      "walkName": "Chesterfield Canal",
      "location": "Chesterfield",
      "lat": 53.30047,
      "lng": -1.40472,
      "walkType": ["Flat", "Fields"],
      "offLeadArea": true,
      "paths": true,
      "animalsOnRoute": true,
      "toilets": false,
      "waterOnRoute": true,
      "scenic": true,
      "parking": "free"
    },
    {
      "walkId": 25,
      "photoId": "walk25.jpg",
      "walkName": "The Rookery",
      "location": "Swadlincote",
      "lat": 52.76435,
      "lng": -1.56107,
      "walkType": ["Flat", "Woods"],
      "offLeadArea": true,
      "paths": true,
      "animalsOnRoute": true,
      "toilets": true,
      "waterOnRoute": false,
      "scenic": true,
      "parking": "free"
    },
    {
      "walkId": 26,
      "photoId": "walk26.jpg",
      "walkName": "Brierley Forest Park",
      "location": "Sutton-in-Ashfield",
      "lat": 53.12589,
      "lng": -1.28267,
      "walkType": ["Flat", "Fields", "Woods"],
      "offLeadArea": true,
      "paths": true,
      "animalsOnRoute": true,
      "toilets": true,
      "waterOnRoute": true,
      "scenic": true,
      "parking": "free"
    },
    {
      "walkId": 27,
      "photoId": "walk27.jpg",
      "walkName": "King's Mill Reservoir",
      "location": "Sutton-in-Ashfield",
      "lat": 53.12133,
      "lng": -1.26467,
      "walkType": ["Flat", "Fields"],
      "offLeadArea": true,
      "paths": true,
      "animalsOnRoute": true,
      "toilets": true,
      "waterOnRoute": true,
      "scenic": true,
      "parking": "free"
    },
    {
      "walkId": 28,
      "photoId": "walk28.jpg",
      "walkName": "Black Rocks",
      "location": "Matlock",
      "lat": 53.10074,
      "lng": -1.56563,
      "walkType": ["Hilly", "Forest"],
      "offLeadArea": true,
      "paths": true,
      "animalsOnRoute": false,
      "toilets": true,
      "waterOnRoute": false,
      "scenic": true,
      "parking": "paid"
    },
    {
      "walkId": 29,
      "photoId": "walk29.jpg",
      "walkName": "Alfreton Park",
      "location": "Alfreton",
      "lat": 53.09586,
      "lng": -1.37314,
      "walkType": ["Flat", "Woods", "Park"],
      "offLeadArea": true,
      "paths": true,
      "animalsOnRoute": true,
      "toilets": true,
      "waterOnRoute": false,
      "scenic": true,
      "parking": "free"
    },
    {
      "walkId": 30,
      "photoId": "walk30.jpg",
      "walkName": "Darley Park",
      "location": "Derby",
      "lat": 52.93352,
      "lng": -1.47834,
      "walkType": ["Flat", "Fields", "Park"],
      "offLeadArea": true,
      "paths": true,
      "animalsOnRoute": true,
      "toilets": true,
      "waterOnRoute": false,
      "scenic": true,
      "parking": "free"
    }
  ]
}
