{
  "walks": [
    {
      "walkId": 1,
      "photoPath": "walk1.jpg",
      "walkName": "Middleton-Top",
      "location": "Wirksworth, Matlock",
      "lat": 53.08269,
      "lng": -1.5736,
      "walkType": ["Hilly"],
      "offLeadAreas": true,
      "paths": true,
      "animalsOnRoute": false,
      "toilets": true,
      "waterOnRoute": false,
      "scenic": true,
      "parking": "paid"
    },
    {
      "walkId": 2,
      "photoPath": "walk2.jpg",
      "walkName": "Stoney-Wood",
      "location": "Wirksworth, Matlock",
      "lat": 53.08504,
      "lng": -1.50495,
      "walkType": ["Hilly", "Woods"],
      "offLeadAreas": true,
      "paths": true,
      "animalsOnRoute": false,
      "toilets": false,
      "waterOnRoute": false,
      "scenic": true,
      "parking": "free"
    },
    {
      "walkId": 3,
      "photoPath": "walk3.jpg",
      "walkName": "Crich Tramway Village",
      "location": "Matlock",
      "lat": 53.08631,
      "lng": -1.47884,
      "walkType": ["Hilly", "Flat", "Park"],
      "offLeadAreas": false,
      "paths": true,
      "animalsOnRoute": false,
      "toilets": true,
      "waterOnRoute": false,
      "scenic": true,
      "parking": "paid"
    },
    {
      "walkId": 4,
      "photoPath": "walk4.jpg",
      "walkName": "Shining Cliff Woods",
      "location": "Alderwasley, Belper",
      "lat": 53.024069,
      "lng": -1.477848,
      "walkType": ["Hilly", "Forest"],
      "offLeadAreas": true,
      "paths": true,
      "animalsOnRoute": false,
      "toilets": false,
      "waterOnRoute": false,
      "scenic": true,
      "parking": "free"
    },
    {
      "walkId": 5,
      "photoPath": "walk5.jpg",
      "walkName": "Nine Ladies Stanton Moor",
      "location": "Birchover, Matlock",
      "lat": 53.14771,
      "lng": -1.57116,
      "walkType": ["Hilly", "Flat"],
      "offLeadAreas": true,
      "paths": true,
      "animalsOnRoute": true,
      "toilets": false,
      "waterOnRoute": false,
      "scenic": true,
      "parking": "free"
    },
    {
      "walkId": 6,
      "photoPath": "walk6.jpg",
      "walkName": "Stanton Stroll",
      "location": "Matlock, Stanton in Peak",
      "lat": 53.17484,
      "lng": -1.64002,
      "walkType": ["Hilly", "Forest"],
      "offLeadAreas": true,
      "paths": true,
      "animalsOnRoute": true,
      "toilets": true,
      "waterOnRoute": false,
      "scenic": true,
      "parking": "free"
    },
    {
      "walkId": 7,
      "photoPath": "walk7.jpg",
      "walkName": "Codnor Castle",
      "location": "Nottingham",
      "lat": 53.04148,
      "lng": -1.37362,
      "walkType": ["Flat", "Woods"],
      "offLeadAreas": true,
      "paths": true,
      "animalsOnRoute": true,
      "toilets": false,
      "waterOnRoute": false,
      "scenic": true,
      "parking": "free"
    },
    {
      "walkId": 8,
      "photoPath": "walk8.jpg",
      "walkName": "Elvaston Castle",
      "location": "Elvaston, Derby",
      "lat": 52.88613,
      "lng": -1.41162,
      "walkType": ["Flat", "Park"],
      "offLeadAreas": true,
      "paths": true,
      "animalsOnRoute": false,
      "toilets": true,
      "waterOnRoute": true,
      "scenic": false,
      "parking": "paid"
    },
    {
      "walkId": 9,
      "photoPath": "walk9.jpg",
      "walkName": "Portland Park",
      "location": "Kirkby in Ashfield, Nottingham",
      "lat": 53.10212,
      "lng": -1.26043,
      "walkType": ["Hilly", "Flat", "Forest", "Park"],
      "offLeadAreas": true,
      "paths": true,
      "animalsOnRoute": true,
      "toilets": true,
      "waterOnRoute": false,
      "scenic": true,
      "parking": "free"
    },
    {
      "walkId": 10,
      "photoPath": "walk10.jpg",
      "walkName": "Ticknall & Calke Loop",
      "location": "Ticknall, Derby",
      "lat": 52.81148,
      "lng": -1.48109,
      "walkType": ["Forest"],
      "offLeadAreas": true,
      "paths": true,
      "animalsOnRoute": true,
      "toilets": true,
      "waterOnRoute": true,
      "scenic": true,
      "parking": "free"
    },
    {
      "walkId": 11,
      "photoPath": "walk11.jpg",
      "walkName": "Langshaw Estate",
      "location": "Longshaw Estate, Sheffield",
      "lat": 53.17637,
      "lng": -1.38983,
      "walkType": ["Forest", "Flat", "Fields"],
      "offLeadAreas": true,
      "paths": true,
      "animalsOnRoute": true,
      "toilets": true,
      "waterOnRoute": true,
      "scenic": true,
      "parking": "paid"
    },
    {
      "walkId": 12,
      "photoPath": "walk12.jpg",
      "walkName": "Dale Abbey Loop",
      "location": "Ilkeston",
      "lat": 52.94553,
      "lng": -1.35186,
      "walkType": ["Hilly", "Forest"],
      "offLeadAreas": true,
      "paths": true,
      "animalsOnRoute": true,
      "toilets": false,
      "waterOnRoute": false,
      "scenic": true,
      "parking": "free"
    },
    {
      "walkId": 13,
      "photoPath": "walk13.jpg",
      "walkName": "Linacre Reservoirs",
      "location": "Chesterfield",
      "lat": 53.248321,
      "lng": -1.500878,
      "walkType": ["Flat", "Forest"],
      "offLeadAreas": true,
      "paths": true,
      "animalsOnRoute": true,
      "toilets": true,
      "waterOnRoute": true,
      "scenic": true,
      "parking": "paid"
    },
    {
      "walkId": 14,
      "photoPath": "walk14.jpg",
      "walkName": "Hardwick Hall",
      "location": "Chesterfield",
      "lat": 53.16701,
      "lng": -1.3106,
      "walkType": ["Flat", "Park"],
      "offLeadAreas": false,
      "paths": true,
      "animalsOnRoute": true,
      "toilets": true,
      "waterOnRoute": false,
      "scenic": true,
      "parking": "paid"
    },
    {
      "walkId": 15,
      "photoPath": "walk15.jpg",
      "walkName": "Calke Abbey",
      "location": "Derby",
      "lat": 52.94234,
      "lng": -1.48187,
      "walkType": ["Hilly", "Flat", "Forest", "Park"],
      "offLeadAreas": true,
      "paths": true,
      "animalsOnRoute": true,
      "toilets": true,
      "waterOnRoute": true,
      "scenic": true,
      "parking": "free"
    },
    {
      "walkId": 16,
      "photoPath": "walk16.jpg",
      "walkName": "Shipley Country Park",
      "location": "Heanor",
      "lat": 53.00469,
      "lng": -1.35643,
      "walkType": ["Park"],
      "offLeadAreas": true,
      "paths": true,
      "animalsOnRoute": false,
      "toilets": true,
      "waterOnRoute": true,
      "scenic": true,
      "parking": "free"
    },
    {
      "walkId": 17,
      "photoPath": "walk17.jpg",
      "walkName": "Mam Tor",
      "location": "Hope Valley, Derbyshire",
      "lat": 53.34316,
      "lng": -1.77666,
      "walkType": ["Hilly"],
      "offLeadAreas": true,
      "paths": true,
      "animalsOnRoute": true,
      "toilets": false,
      "waterOnRoute": true,
      "scenic": true,
      "parking": "free"
    },
    {
      "walkId": 18,
      "photoPath": "walk18.jpg",
      "walkName": "Milton to Foremark Loop",
      "location": "Milton, Derby",
      "lat": 53.34316,
      "lng": -1.52528,
      "walkType": ["Hilly", "Forest", "Beach"],
      "offLeadAreas": true,
      "paths": true,
      "animalsOnRoute": true,
      "toilets": true,
      "waterOnRoute": true,
      "scenic": true,
      "parking": "free"
    },
    {
      "walkId": 19,
      "photoPath": "walk19.jpg",
      "walkName": "Monsal Dale",
      "location": "Peak District, Derbyshire",
      "lat": 53.24599,
      "lng": -1.73561,
      "walkType": ["Hilly", "Scenic"],
      "offLeadAreas": true,
      "paths": true,
      "animalsOnRoute": false,
      "toilets": true,
      "waterOnRoute": false,
      "scenic": true,
      "parking": "paid"
    },
    {
      "walkId": 20,
      "photoPath": "walk20.jpg",
      "walkName": "Chatsworth Estate",
      "location": "Peak District, Derbyshire",
      "lat": 53.5074,
      "lng": -1.85313,
      "walkType": ["Hilly", "Flat"],
      "offLeadAreas": true,
      "paths": true,
      "animalsOnRoute": true,
      "toilets": false,
      "waterOnRoute": true,
      "scenic": true,
      "parking": "paid"
    },
    {
      "walkId": 21,
      "photoPath": "walk21.jpg",
      "walkName": "The Robin Hood Inn Pub Walk",
      "location": "Peak District, Derbyshire",
      "lat": 53.24699,
      "lng": -1.60196,
      "walkType": ["Hilly"],
      "offLeadAreas": true,
      "paths": true,
      "animalsOnRoute": true,
      "toilets": false,
      "waterOnRoute": true,
      "scenic": true,
      "parking": "free"
    },
    {
      "walkId": 22,
      "photoPath": "walk22.jpg",
      "walkName": "Stanage Edge",
      "location": "Peak District, Derbyshire",
      "lat": 53.5074,
      "lng": -1.85313,
      "walkType": ["Hilly"],
      "offLeadAreas": true,
      "paths": true,
      "animalsOnRoute": true,
      "toilets": false,
      "waterOnRoute": true,
      "scenic": true,
      "parking": "paid"
    },
    {
      "walkId": 23,
      "photoPath": "walk23.jpg",
      "walkName": "Curbar Edge",
      "location": "Peak District, Derbyshire",
      "lat": 53.26798,
      "lng": -1.61882,
      "walkType": ["Moors", "Hilly"],
      "offLeadAreas": true,
      "paths": true,
      "animalsOnRoute": true,
      "toilets": false,
      "waterOnRoute": true,
      "scenic": true,
      "parking": "paid"
    },
    {
      "walkId": 24,
      "photoPath": "walk24.jpg",
      "walkName": "Jacob's Ladder",
      "location": "Peak District, Derbyshire",
      "lat": 53.36383,
      "lng": -1.84666,
      "walkType": ["Moors", "Hilly"],
      "offLeadAreas": true,
      "paths": true,
      "animalsOnRoute": true,
      "toilets": false,
      "waterOnRoute": true,
      "scenic": true,
      "parking": "paid"
    },
    {
      "walkId": 25,
      "photoPath": "walk25.jpg",
      "walkName": "Padley Gorge",
      "location": "Peak District, Derbyshire",
      "lat": 53.30329,
      "lng": -1.62501,
      "walkType": ["Woodland", "Hilly", "Flat"],
      "offLeadAreas": true,
      "paths": true,
      "animalsOnRoute": true,
      "toilets": true,
      "waterOnRoute": true,
      "scenic": true,
      "parking": "paid"
    },
    {
      "walkId": 26,
      "photoPath": "walk26.jpg",
      "walkName": "Cresswell Crags",
      "location": "Worksop, Derbyshire",
      "lat": 53.26334,
      "lng": -1.20294,
      "walkType": ["Forest", "Flat"],
      "offLeadAreas": true,
      "paths": true,
      "animalsOnRoute": true,
      "toilets": true,
      "waterOnRoute": true,
      "scenic": true,
      "parking": "free"
    },
    {
      "walkId": 27,
      "photoPath": "walk27.jpg",
      "walkName": "Longdendale Trail",
      "location": "Glossop, Derbyshire",
      "lat": 53.463,
      "lng": -1.96163,
      "walkType": ["Flat"],
      "offLeadAreas": true,
      "paths": true,
      "animalsOnRoute": true,
      "toilets": true,
      "waterOnRoute": true,
      "scenic": true,
      "parking": "free"
    },
    {
      "walkId": 28,
      "photoPath": "walk28.jpg",
      "walkName": "Kedleston Hall",
      "location": "Derby, Derbyshire",
      "lat": 52.9298,
      "lng": -1.4838,
      "walkType": ["Hilly", "Flat", "Forest", "Park"],
      "offLeadAreas": true,
      "paths": true,
      "animalsOnRoute": true,
      "toilets": true,
      "waterOnRoute": true,
      "scenic": true,
      "parking": "free"
    },
    {
      "walkId": 29,
      "photoPath": "walk29.jpg",
      "walkName": "Monsal Trail",
      "location": "Buxton",
      "lat": 52.76625,
      "lng": -1.57702,
      "walkType": ["Flat"],
      "offLeadAreas": true,
      "paths": true,
      "animalsOnRoute": false,
      "toilets": true,
      "waterOnRoute": false,
      "scenic": false,
      "parking": "paid"
    },
    {
      "walkId": 30,
      "photoPath": "walk30.jpg",
      "walkName": "Grassmoor Country Park",
      "location": "Chesterfield, Derbyshire",
      "lat": 53.25006,
      "lng": -1.92588,
      "walkType": ["Flat"],
      "offLeadAreas": true,
      "paths": true,
      "animalsOnRoute": false,
      "toilets": false,
      "waterOnRoute": true,
      "scenic": true,
      "parking": "free"
    }
  ]
}
